[
  {
    "country": "日本",
    "city": "東京",
    "name": "石の専門商社 コスモスペース",
    "lat": 35.673054478826074,
    "lng": 139.70741745110195,
    "members": [
      "Ningning",
      "Giselle"
    ],
    "date": "2024年3月3日",
    "note": "石頭專賣店可以賭石嗎??",
    "ig_post_url": "https://www.instagram.com/p/DDHdHv0y2mt/",
    "ig_img_urls": [
        "images/giselle_tokyo_1.jpg",
        "images/giselle_tokyo_2.jpg",
        "images/giselle_tokyo_3.jpg",
        "images/giselle_tokyo_4.jpg",
        "images/giselle_tokyo_5.jpg",
        "images/giselle_tokyo_6.jpg",
        "images/giselle_tokyo_7.jpg"
    ]
  },
  {
    "country": "日本",
    "city": "東京",
    "name": "王子ホールディングス(株)",
    "lat": 35.671267824883,
    "lng": 139.76641745307248,
    "members": [
      "Karina"
    ],
    "date": "2024年3月23日",
    "note": "過馬路要看路阿",
    "ig_post_url": "https://www.instagram.com/p/C9sRSEmyzAl/",
    "ig_img_urls": [
        "images/karina_tokyo_1.jpg",
        "images/karina_tokyo_2.jpg",
        "images/karina_tokyo_3.jpg"
    ]
  },
  {
    "country": "日本",
    "city": "沖縄",
    "name": "デポアイランドビルC",
    "lat": 26.31626574128503,
    "lng": 127.75487666137079,
    "members": [
      "Winter"
    ],
    "date": "2024年1月24日",
    "note": "寶寶太美了-.-",
    "ig_post_url": "https://www.instagram.com/p/C2erHSYv4nI/",
    "ig_img_urls": [
            "images/winter_okinawa_1.jpg",  
            "images/winter_okinawa_2.jpg",
            "images/winter_okinawa_3.jpg",
            "images/winter_okinawa_4.jpg",
            "images/winter_okinawa_5.jpg",
            "images/winter_okinawa_6.jpg",
            "images/winter_okinawa_7.jpg",
            "images/winter_okinawa_8.jpg",
            "images/winter_okinawa_9.jpg"
        ]
  },
  {
    "country": "日本",
    "city": "福岡",
    "name": "パンストック天神店",
    "lat": 33.59193798801333,
    "lng": 130.4094946153409,
    "members": [
      "Karina"
    ],
    "date": "2025年3月13日",
    "note": "小豬一個人吃那麼多麵包",
    "ig_post_url": "https://www.instagram.com/p/DPvxP3MEtN4/",
    "ig_img_urls": [
    ]
  },
    {
    "country": "日本",
    "city": "福岡",
    "name": "アクロス福岡前",
    "lat": 33.59200210776174,
    "lng": 130.4024378306854,
    "members": [
      "Karina"
    ],
    "date": "2025年3月13日",
    "note": "讓劉地陪為我們帶路",
    "ig_post_url": "https://www.instagram.com/p/DPvxP3MEtN4/",
    "ig_img_urls": [
        "images/karina_Fukuoka_2.jpg",
        "images/karina_Fukuoka_3.jpg",
        "images/karina_Fukuoka_4.jpg",
        "images/karina_Fukuoka_5.jpg",
        "images/karina_Fukuoka_6.jpg"
    ]
  },
    {
    "country": "日本",
    "city": "福岡",
    "name": "中洲の西大橋",
    "lat": 33.59192978796356,
    "lng": 130.40486856132858,
    "members": [
      "Karina"
    ],
    "date": "2025年3月13日",
    "note": "欸欸欸這張還不確定座標",
    "ig_post_url": "https://www.instagram.com/p/DPvxP3MEtN4/",
    "ig_img_urls": [
        "images/karina_Fukuoka_1.jpg"
    ]
  }
]