[
  {
    "country": "日本",
    "city": "東京",
    "name": "石の専門商社 コスモスペース",
    "lat": 35.673054478826074,
    "lng": 139.70741745110195,
    "members": [
      "Ningning",
      "Giselle"
    ],
    "date": "2024年3月3日",
    "note": "石頭專賣店可以賭石嗎??",
    "ig_post_url": "https://www.instagram.com/p/DDHdHv0y2mt/,https://www.instagram.com/p/DDHkcSOzG_O/",
    "ig_img_urls": [
        "images/G/giselle_tokyo_1.jpg",
        "images/G/giselle_tokyo_2.jpg",
        "images/G/giselle_tokyo_3.jpg",
        "images/G/giselle_tokyo_4.jpg",
        "images/G/giselle_tokyo_5.jpg",
        "images/G/giselle_tokyo_6.jpg",
        "images/G/giselle_tokyo_7.jpg",
        "images/N/ningning_tokyo_9.jpg",
        "images/N/ningning_tokyo_10.jpg"
    ]
  },
  {
    "country": "日本",
    "city": "東京",
    "name": "王子ホールディングス(株)",
    "lat": 35.671267824883,
    "lng": 139.76641745307248,
    "members": [
      "Karina"
    ],
    "date": "2024年3月23日",
    "note": "過馬路要看路阿",
    "ig_post_url": "https://www.instagram.com/p/C9sRSEmyzAl/",
    "ig_img_urls": [
        "images/K/karina_tokyo_1.jpg",
        "images/K/karina_tokyo_2.jpg",
        "images/K/karina_tokyo_3.jpg"
    ]
  },
  {
    "country": "日本",
    "city": "福岡",
    "name": "パンストック天神店",
    "lat": 33.59193798801333,
    "lng": 130.4094946153409,
    "members": [
      "Karina"
    ],
    "date": "2025年3月13日",
    "note": "小豬一個人吃那麼多麵包",
    "ig_post_url": "https://www.instagram.com/p/DPvxP3MEtN4/",
    "ig_img_urls": [
        "images/K/karina_fukuoka_7.jpg",
        "images/K/karina_fukuoka_8.jpg",
        "images/K/karina_fukuoka_9.jpg",
        "images/K/karina_fukuoka_10.jpg",
        "images/K/karina_fukuoka_11.jpg",
        "images/K/karina_fukuoka_12.jpg",
        "images/K/karina_fukuoka_13.jpg",
        "images/K/karina_fukuoka_14.jpg",
        "images/K/karina_fukuoka_15.jpg"
    ]
  },
    {
    "country": "日本",
    "city": "福岡",
    "name": "アクロス福岡前",
    "lat": 33.59200210776174,
    "lng": 130.4024378306854,
    "members": [
      "Karina"
    ],
    "date": "2025年3月13日",
    "note": "讓劉地陪為我們帶路",
    "ig_post_url": "https://www.instagram.com/p/DPvxP3MEtN4/",
    "ig_img_urls": [
        "images/K/karina_fukuoka_2.jpg",
        "images/K/karina_fukuoka_3.jpg",
        "images/K/karina_fukuoka_4.jpg",
        "images/K/karina_fukuoka_5.jpg",
        "images/K/karina_fukuoka_6.jpg"
    ]
  },
    {
    "country": "日本",
    "city": "福岡",
    "name": "中洲の西大橋",
    "lat": 33.59192978796356,
    "lng": 130.40486856132858,
    "members": [
      "Karina"
    ],
    "date": "2025年3月13日",
    "note": "【待定位】此地點線索不足，需進行反覆查證。",
    "ig_post_url": "https://www.instagram.com/p/DPvxP3MEtN4/",
    "ig_img_urls": [
        "images/K/karina_Fukuoka_1.jpg"
    ]
  },
  {
    "country": "日本",
    "city": "福岡",
    "name": "入江書店",
    "lat": 33.588032438901614,
    "lng": 130.39522091534212,
    "members": [
      "Karina"
    ],
    "date": "2025年10月13日",
    "note": "只是書",
    "ig_post_url": "https://www.instagram.com/p/DPvxP3MEtN4/",
    "ig_img_urls": [
      "images/K/karina_fukuoka_16.jpg"
    ]
  },
  {
    "country": "日本",
    "city": "沖繩",
    "name": "なかゆくい市場『琉冰』",
    "lat": 26.4363561080997,
    "lng": 127.79472000366715,
    "members": [
      "Giselle"
    ],
    "date": "2025年6月16日",
    "note": "這是芒果加鳳梨嗎好害怕",
    "ig_post_url": "https://www.instagram.com/p/DK8k6kPSfVb/",
    "ig_img_urls": [
      "images/G/giselle_okinawa_1.jpg"
    ]
  },
  {
    "country": "日本",
    "city": "沖繩",
    "name": "ホテルさくらのファミリア名護前の海",
    "lat": 26.58078674322584,
    "lng": 127.983775,
    "members": [
      "Giselle"
    ],
    "date": "2025年6月16日",
    "note": "【待定位】此地點線索不足，需進行反覆查證。疑似有去ネオパークオキナワ",
    "ig_post_url": "https://www.instagram.com/p/DK8k6kPSfVb/",
    "ig_img_urls": [
      "images/G/giselle_okinawa_2.jpg",
      "images/G/giselle_okinawa_3.jpg",
      "images/G/giselle_okinawa_4.jpg",
      "images/G/giselle_okinawa_5.jpg",
      "images/G/giselle_okinawa_6.jpg",
      "images/G/giselle_okinawa_7.jpg",
      "images/G/giselle_okinawa_8.jpg",
      "images/G/giselle_okinawa_9.jpg",
      "images/G/giselle_okinawa_10.jpg",
      "images/G/giselle_okinawa_11.jpg",
      "images/G/giselle_okinawa_12.jpg",
      "images/G/giselle_okinawa_13.jpggiselle_okinawa_14.jpg",
      "images/G/giselle_okinawa_15.jpg",
      "images/G/giselle_okinawa_16.jpg",
      "images/G/giselle_okinawa_17.jpg"
    ]
  },
  {
    "country": "日本",
    "city": "東京",
    "name": "株式会社水橋前",
    "lat": 35.66339528329161,
    "lng": 139.73696308465512,
    "members": [
      "Giselle"
    ],
    "date": "2024年12月6日",
    "note": "",
    "ig_post_url": "https://www.instagram.com/p/DDO7aO-ynmQ/",
    "ig_img_urls": [
      "images/G/giselle_tokyo_8.jpg",
      "images/G/giselle_tokyo_9.jpg",
      "images/G/giselle_tokyo_10.jpg",
      "images/G/giselle_tokyo_11.jpg",
      "images/G/giselle_tokyo_12.jpg",
      "images/G/giselle_tokyo_13.jpg",
      "images/G/giselle_tokyo_14.jpg",
      "images/G/giselle_tokyo_15.jpg"
    ]
  },
  {
    "country": "日本",
    "city": "東京",
    "name": "大森南四丁目公園 周辺",
    "lat": 35.56738190520541,
    "lng": 139.74676325401742,
    "members": [
      "Winter"
    ],
    "date": "2025年8月18日",
    "note": "",
    "ig_post_url": "https://www.instagram.com/p/DNe61tPT_hG/",
    "ig_img_urls": [
      "images/W/winter_tokyo_5.jpg",
      "images/W/winter_tokyo_6.jpg",
      "images/W/winter_tokyo_7.jpg",
      "images/W/winter_tokyo_8.jpg",
      "images/W/winter_tokyo_9.jpg",
      "images/W/winter_tokyo_10.jpg",
      "images/W/winter_tokyo_11.jpg",
      "images/W/winter_tokyo_12.jpg",
      "images/W/winter_tokyo_13.jpg",
      "images/W/winter_tokyo_14.jpg"
    ]
  },
  {
    "country": "日本",
    "city": "東京",
    "name": "羽田スタジオ – HANEDA ENTERTAINMENT STUDIO 周辺",
    "lat": 35.5599578482758,
    "lng": 139.75016966137943,
    "members": [
      "Winter"
    ],
    "date": "2025年8月18日",
    "note": "",
    "ig_post_url": "https://www.instagram.com/p/DNe61tPT_hG/",
    "ig_img_urls": [
      "images/W/winter_tokyo_1.jpg",
      "images/W/winter_tokyo_2.jpg",
      "images/W/winter_tokyo_3.jpg",
      "images/W/winter_tokyo_4.jpg"
    ]
  },
  {
    "country": "日本",
    "city": "東京",
    "name": "TENNOZ breadworks & Lily cakes",
    "lat": 35.623110163318586,
    "lng": 139.7475889153449,
    "members": [
      "Winter"
    ],
    "date": "2025年8月9日",
    "note": "",
    "ig_post_url": "https://www.instagram.com/p/DNIU3fzzHN3/",
    "ig_img_urls": [
      "images/W/winter_tokyo_15.jpg",
      "images/W/winter_tokyo_16.jpg",
      "images/W/winter_tokyo_17.jpg"
    ]
  },
  {
    "country": "日本",
    "city": "東京",
    "name": "天王洲ふれあい橋",
    "lat": 35.62324697728032,
    "lng": 139.74761669488382,
    "members": [
      "Winter"
    ],
    "date": "2025年8月9日",
    "note": "",
    "ig_post_url": "https://www.instagram.com/p/DNIU3fzzHN3/",
    "ig_img_urls": [
      "images/W/winter_tokyo_18.jpg",
      "images/W/winter_tokyo_19.jpg",
      "images/W/winter_tokyo_20.jpg",
      "images/W/winter_tokyo_21.jpg",
      "images/W/winter_tokyo_22.jpg"
    ]
  },
  {
    "country": "日本",
    "city": "沖繩",
    "name": "沖縄美ら海水族館",
    "lat": 26.694366755930325,
    "lng": 127.878013,
    "members": [
      "Karina"
    ],
    "date": "2024年12月19日",
    "note": "",
    "ig_post_url": "https://www.instagram.com/p/DDwLB8ByUk5/",
    "ig_img_urls": [
      "images/K/karina_okinawa_1.jpg",
      "images/K/karina_okinawa_2.jpg",
      "images/K/karina_okinawa_3.jpg",
      "images/K/karina_okinawa_4.jpg",
      "images/K/karina_okinawa_5.jpg",
      "images/K/karina_okinawa_6.jpg",
      "images/K/karina_okinawa_7.jpg",
      "images/K/karina_okinawa_8.jpg",
      "images/K/karina_okinawa_9.jpg",
      "images/K/karina_okinawa_10.jpg"
    ]
  },
  {
    "country": "日本",
    "city": "東京",
    "name": "UGG® Tokyo Flagship前通り",
    "lat": 35.66945091646058,
    "lng": 139.70631651700623,
    "members": [
      "Giselle",
      "Ningning"
    ],
    "date": "2024年12月4日",
    "note": "",
    "ig_post_url": "https://www.instagram.com/p/DDHdHv0y2mt/,https://www.instagram.com/p/DDHkcSOzG_O/",
    "ig_img_urls": [
      "images/G/giselle_tokyo_16.jpg",
      "images/G/giselle_tokyo_17.jpg",
      "images/N/ningning_tokyo_1.jpg",
      "images/N/ningning_tokyo_2.jpg",
      "images/N/ningning_tokyo_3.jpg",
      "images/N/ningning_tokyo_4.jpg",
      "images/N/ningning_tokyo_5.jpg",
      "images/N/ningning_tokyo_6.jpg",
      "images/N/ningning_tokyo_7.jpg",
      "images/N/ningning_tokyo_8.jpg"
    ]
  },
  {
    "country": "日本",
    "city": "東京",
    "name": "笑たこ 原宿表参道店",
    "lat": 35.66663541823625,
    "lng": 139.7060941693103,
    "members": [
      "Giselle",
      "Ningning"
    ],
    "date": "2024年12月4日",
    "note": "",
    "ig_post_url": "https://www.instagram.com/p/DDwLB8ByUk5/",
    "ig_img_urls": [
      "images/G/giselle_tokyo_18.jpg",
      "images/G/giselle_tokyo_19.jpg"
    ]
  },
  {
    "country": "日本",
    "city": "大阪",
    "name": "ヒステリックグラマー大阪",
    "lat": 34.6711979703537,
    "lng": 135.493946,
    "members": [
      "Giselle",
      "Ningning"
    ],
    "date": "2024年11月14日",
    "note": "",
    "ig_post_url": "https://www.instagram.com/p/DCWp0aKy_nv/",
    "ig_img_urls": [
      "images/G/giselle_osaka_4.jpg",
      "images/G/giselle_osaka_9.jpg"

    ]
  },
  {
    "country": "日本",
    "city": "大阪",
    "name": "オレンジストリート入口",
    "lat": 34.67129979407334,
    "lng": 135.496311,
    "members": [
      "Giselle"
    ],
    "date": "2024年11月14日",
    "note": "",
    "ig_post_url": "https://www.instagram.com/p/DCWp0aKy_nv/",
    "ig_img_urls": [
      "images/G/giselle_osaka_1.jpg",
      "images/G/giselle_osaka_2.jpg",
      "images/G/giselle_osaka_3.jpg",
      "images/G/giselle_osaka_5.jpg",
      "images/G/giselle_osaka_7.jpg",
      "images/G/giselle_osaka_8.jpg"
    ]
  },
  {
    "country": "日本",
    "city": "東京",
    "name": "アートアクアリウム美術館 GINZA(期間限定イベント)",
    "lat": 35.67127728415219,
    "lng": 139.765738,
    "members": [
      "Karina"
    ],
    "date": "2024年7月22日",
    "note": "",
    "ig_post_url": "https://www.instagram.com/p/C9sRSEmyzAl/",
    "ig_img_urls": [
      "images/K/karina_tokyo_4.jpg"
    ]
  },
  {
    "country": "日本",
    "city": "東京",
    "name": "duffle with kapital",
    "lat": 35.642759843120835,
    "lng": 139.7101230846551,
    "members": [
      "Karina"
    ],
    "date": "2024年7月10日",
    "note": "",
    "ig_post_url": "https://www.instagram.com/p/C9PFMW4yRGg/",
    "ig_img_urls": [
      "images/K/karina_tokyo_5.jpg",
      "images/K/karina_tokyo_6.jpg",
      "images/K/karina_tokyo_7.jpg",
      "images/K/karina_tokyo_8.jpg"
    ]
  },
  {
    "country": "日本",
    "city": "東京",
    "name": "渋谷横丁&BASE前",
    "lat": 35.66060854481333,
    "lng": 139.70178365889547,
    "members": [
      "Karina"
    ],
    "date": "2024年7月12日",
    "note": "【待定位】此地點線索不足，需進行反覆查證。9、10不確定在哪座橋",
    "ig_post_url": "https://www.instagram.com/p/C9O1cMNy9b2/",
    "ig_img_urls": [
      "images/K/karina_tokyo_15.jpg",
      "images/K/karina_tokyo_14.jpg",
      "images/K/karina_tokyo_13.jpg",
      "images/K/karina_tokyo_12.jpg",
      "images/K/karina_tokyo_11.jpg",
      "images/K/karina_tokyo_10.jpg",
      "images/K/karina_tokyo_9.jpg"
    ]
  },
  {
    "country": "日本",
    "city": "東京",
    "name": "Evercastle前",
    "lat": 35.67072085227712,
    "lng": 139.70868508465512,
    "members": [
      "Karina"
    ],
    "date": "2024年7月9日",
    "note": "",
    "ig_post_url": "https://www.instagram.com/p/C9MypJry8Xu/",
    "ig_img_urls": [
      "images/K/karina_tokyo_16.jpg",
      "images/K/karina_tokyo_17.jpg",
      "images/K/karina_tokyo_18.jpg",
      "images/K/karina_tokyo_19.jpg",
      "images/K/karina_tokyo_20.jpg"
    ]
  },
  {
    "country": "日本",
    "city": "東京",
    "name": "ハルハル",
    "lat": 35.70612413612915,
    "lng": 139.64913454232754,
    "members": [
      "Giselle"
    ],
    "date": "2024年7月11日",
    "note": "",
    "ig_post_url": "https://www.instagram.com/p/C9NGD2aSmbn/",
    "ig_img_urls": [
      "images/G/giselle_tokyo_20.jpg"
    ]
  },
  {
    "country": "韓國",
    "city": "首爾",
    "name": "Silbiog",
    "lat": 37.543425772203065,
    "lng": 127.05822635124262,
    "members": [
      "Karina",
      "Giselle"
    ],
    "date": "2025年12月8日",
    "note": "",
    "ig_post_url": "https://www.youtube.com/watch?v=xJDMMcY8-1U",
    "ig_img_urls": []
  },
  {
    "country": "日本",
    "city": "福岡",
    "name": "博多もつ鍋 前田屋総本店",
    "lat": 33.58778781262582,
    "lng": 130.42545454232757,
    "members": [
      "Ningning"
    ],
    "date": "2024年7月10日",
    "note": "",
    "ig_post_url": "https://www.instagram.com/p/C9MOJZXSvi3/",
    "ig_img_urls": [
      "images/N/ningning_fukuoka_1.jpg"
    ]
  },
  {
    "country": "日本",
    "city": "東京",
    "name": "ブリティッシュインディアンカフェ1930",
    "lat": 35.67107227894588,
    "lng": 139.70892383291658,
    "members": [
      "Giselle"
    ],
    "date": "2024年7月8日",
    "note": "【待定位】此地點線索不足，需進行反覆查證。22不確定是不是同一間",
    "ig_post_url": "https://www.instagram.com/p/C9KecneS54X/",
    "ig_img_urls": [
      "images/G/giselle_tokyo_21.jpg",
      "images/G/giselle_tokyo_22.jpg"
    ]
  },
  {
    "country": "日本",
    "city": "東京",
    "name": "ドン・キホーテ歌舞伎町店前",
    "lat": 35.69377164330443,
    "lng": 139.7017762711638,
    "members": [
      "Giselle"
    ],
    "date": "2024年7月7日",
    "note": "",
    "ig_post_url": "https://www.instagram.com/p/C9FUVjvSmLo/",
    "ig_img_urls": [
      "images/G/giselle_tokyo_23.jpg",
      "images/G/giselle_tokyo_24.jpg",
      "images/G/giselle_tokyo_25.jpg",
      "images/G/giselle_tokyo_26.jpg",
      "images/G/giselle_tokyo_27.jpg",
      "images/G/giselle_tokyo_28.jpg",
      "images/G/giselle_tokyo_29.jpg",
      "images/G/giselle_tokyo_30.jpg"
    ]
  },
  {
    "country": "日本",
    "city": "東京",
    "name": "セブンスデー・アドベンチスト東京中央教会自販機前",
    "lat": 35.669417074078204,
    "lng": 139.7054623730173,
    "members": [
      "Ningning"
    ],
    "date": "2024年7月4日",
    "note": "",
    "ig_post_url": "",
    "ig_img_urls": [

    ]
  },
  {
    "country": "日本",
    "city": "東京",
    "name": "ラフォーレミュージアム原宿前",
    "lat": 35.66912361119018,
    "lng": 139.7055092711638,
    "members": [
      "Ningning"
    ],
    "date": "2024年7月4日",
    "note": "",
    "ig_post_url": "",
    "ig_img_urls": []
  },
  {
    "country": "日本",
    "city": "東京",
    "name": "赤坂サンビル",
    "lat": 35.67328571562947,
    "lng": 139.73817754232758,
    "members": [
      "Ningning"
    ],
    "date": "2024年7月5日",
    "note": "",
    "ig_post_url": "",
    "ig_img_urls": []
  },
  {
    "country": "日本",
    "city": "沖繩",
    "name": "デポアイランドビルC",
    "lat": 26.315948383068193,
    "lng": 127.75472645767243,
    "members": [
      "Winter"
    ],
    "date": "2024年1月24日",
    "note": "",
    "ig_post_url": "https://www.instagram.com/p/C2erHSYv4nI/",
    "ig_img_urls": [
      "images/W/winter_okinawa_10.jpg"
    ]
  },
  {
    "country": "日本",
    "city": "沖繩",
    "name": "ザネー浜",
    "lat": 26.441385606496603,
    "lng": 127.76760908465512,
    "members": [
      "Winter"
    ],
    "date": "2024年1月24日",
    "note": "",
    "ig_post_url": "https://www.instagram.com/p/C2erHSYv4nI/",
    "ig_img_urls": [
      "images/W/winter_okinawa_1.jpg"
    ]
  },
  {
    "country": "日本",
    "city": "沖繩",
    "name": "Beach51",
    "lat": 26.440674819669987,
    "lng": 127.76900254232756,
    "members": [
      "Winter"
    ],
    "date": "2024年1月24日",
    "note": "",
    "ig_post_url": "https://www.instagram.com/p/C2erHSYv4nI/",
    "ig_img_urls": [
      "images/W/winter_okinawa_2.jpg",
      "images/W/winter_okinawa_3.jpg",
      "images/W/winter_okinawa_4.jpg",
      "images/W/winter_okinawa_5.jpg",
      "images/W/winter_okinawa_6.jpg"
    ]
  },
  {
    "country": "日本",
    "city": "沖繩",
    "name": "うつわスカート",
    "lat": 26.212671625490326,
    "lng": 127.69211254232755,
    "members": [
      "Winter"
    ],
    "date": "2024年1月17日",
    "note": "【待定位】此地點線索不足，需進行反覆查證。14",
    "ig_post_url": "https://www.instagram.com/p/C2MB5-cPkwr/",
    "ig_img_urls": [
      "images/W/winter_okinawa_15.jpg"
    ]
  },
  {
    "country": "日本",
    "city": "沖繩",
    "name": "アラハビーチ",
    "lat": 26.30423608953134,
    "lng": 127.75852008465513,
    "members": [
      "Winter"
    ],
    "date": "2024年1月17日",
    "note": "",
    "ig_post_url": "https://www.instagram.com/p/C2MB5-cPkwr/",
    "ig_img_urls": [
      "images/W/winter_okinawa_17.jpg",
      "images/W/winter_okinawa_18.jpg",
      "images/W/winter_okinawa_19.jpg",
      "images/W/winter_okinawa_7.jpg",
      "images/W/winter_okinawa_8.jpg",
      "images/W/winter_okinawa_9.jpg"
    ]
  },
  {
    "country": "日本",
    "city": "沖繩",
    "name": "大天堂薬局前",
    "lat": 26.216639875488635,
    "lng": 127.68966454232755,
    "members": [
      "Winter"
    ],
    "date": "2024年1月17日",
    "note": "",
    "ig_post_url": "https://www.instagram.com/p/C2MB5-cPkwr/",
    "ig_img_urls": [
      "images/W/winter_okinawa_13.jpg"
    ]
  },
  {
    "country": "日本",
    "city": "沖繩",
    "name": "酒のみ屋 魚久2号店",
    "lat": 26.213999873109675,
    "lng": 127.68843654232757,
    "members": [
      "Winter"
    ],
    "date": "2024年1月17日",
    "note": "",
    "ig_post_url": "https://www.instagram.com/p/C2MB5-cPkwr/",
    "ig_img_urls": [
      "images/W/winter_okinawa_12.jpg"
    ]
  },
  {
    "country": "日本",
    "city": "沖繩",
    "name": "沖縄居酒屋 すん。",
    "lat": 26.216037630536313,
    "lng": 127.68813916931028,
    "members": [
      "Winter"
    ],
    "date": "2024年1月17日",
    "note": "",
    "ig_post_url": "https://www.instagram.com/p/C2MB5-cPkwr/",
    "ig_img_urls": [
      "images/W/winter_okinawa_11.jpg"
    ]
  },
  {
    "country": "日本",
    "city": "沖繩",
    "name": "ワルミ大橋",
    "lat": 26.668352237514885,
    "lng": 127.99315208465512,
    "members": [
      "Winter"
    ],
    "date": "2024年1月19日",
    "note": "",
    "ig_post_url": "https://www.instagram.com/p/C2RXvUlPGed/",
    "ig_img_urls": [
      "images/W/winter_okinawa_28.jpg"
    ]
  },
  {
    "country": "日本",
    "city": "沖繩",
    "name": "備瀬崎",
    "lat": 26.70978207995105,
    "lng": 127.88003254232756,
    "members": [
      "Winter"
    ],
    "date": "2024年1月19日",
    "note": "",
    "ig_post_url": "https://www.instagram.com/p/C2RXvUlPGed/",
    "ig_img_urls": [
      "images/W/winter_okinawa_20.jpg",
      "images/W/winter_okinawa_21.jpg",
      "images/W/winter_okinawa_22.jpg",
      "images/W/winter_okinawa_23.jpg",
      "images/W/winter_okinawa_24.jpg",
      "images/W/winter_okinawa_25.jpg",
      "images/W/winter_okinawa_26.jpg",
      "images/W/winter_okinawa_27.jpg"
    ]
  },
  {
    "country": "日本",
    "city": "東京",
    "name": "KIDDYLAND 原宿店",
    "lat": 35.667733092360876,
    "lng": 139.7065471030104,
    "members": [
      "Giselle"
    ],
    "date": "2022年8月26日",
    "note": "",
    "ig_post_url": "https://www.instagram.com/p/ChuRn0APCAc/",
    "ig_img_urls": [
      
    ]
  },
  {
    "country": "日本",
    "city": "東京",
    "name": "BE:SIDE 表参道店",
    "lat": 35.669438416884525,
    "lng": 139.71078556865905,
    "members": [
      "Giselle"
    ],
    "date": "2023年8月5日",
    "note": "",
    "ig_post_url": "https://www.instagram.com/p/Cg3O4pihlcj/",
    "ig_img_urls": []
  },
  {
    "country": "日本",
    "city": "東京",
    "name": "ラフォーレ原宿 GR8",
    "lat": 35.669029661670585,
    "lng": 139.70541667904624,
    "members": [
      "Giselle"
    ],
    "date": "2022年8月26日",
    "note": "",
    "ig_post_url": "https://www.instagram.com/p/ChuRn0APCAc/",
    "ig_img_urls": []
  },
  {
    "country": "日本",
    "city": "東京",
    "name": "杉養蜂園 表参道店",
    "lat": 35.66770903138879,
    "lng": 139.71157313454415,
    "members": [
      "Karina"
    ],
    "date": "2022年9月4日",
    "note": "",
    "ig_post_url": "https://www.instagram.com/p/CiFprQtBI9r/",
    "ig_img_urls": []
  },
  {
    "country": "日本",
    "city": "東京",
    "name": "クロムハーツ 青山店",
    "lat": 35.6607323340011,
    "lng": 139.71605364232812,
    "members": [
      "Winter"
    ],
    "date": "2022年8月5日",
    "note": "",
    "ig_post_url": "https://www.instagram.com/p/Cg3O4pihlcj/",
    "ig_img_urls": []
  },
  {
    "country": "日本",
    "city": "東京",
    "name": "HAY TOKYO",
    "lat": 35.66738555384425,
    "lng": 139.70691251015876,
    "members": [
      "Giselle"
    ],
    "date": "2022年8月26日",
    "note": "B1F",
    "ig_post_url": "https://www.instagram.com/p/ChuRn0APCAc/",
    "ig_img_urls": []
  },
  {
    "country": "日本",
    "city": "京都",
    "name": "祇園饅頭 工場 東山",
    "lat": 35.00966377281146,
    "lng": 135.7807768366512,
    "members": [
      "Giselle"
    ],
    "date": "2023年3月17日",
    "note": "",
    "ig_post_url": "https://www.instagram.com/p/Cp6ZuklvYpI/",
    "ig_img_urls": []
  },
  {
    "country": "日本",
    "city": "京都",
    "name": "平安神宮",
    "lat": 35.01593737719155,
    "lng": 135.78243350096295,
    "members": [
      "Giselle"
    ],
    "date": "2023年3月17日",
    "note": "【待定位】此地點線索不足，需進行反覆查證。",
    "ig_post_url": "https://www.instagram.com/p/Cp6aV1GP8wt/",
    "ig_img_urls": []
  },
  {
    "country": "日本",
    "city": "京都",
    "name": "伏見稲荷 千本鳥居",
    "lat": 34.967437073820655,
    "lng": 135.77384279432027,
    "members": [
      "Giselle"
    ],
    "date": "2023年3月17日",
    "note": "",
    "ig_post_url": "https://www.instagram.com/p/Cp6ZuklvYpI/",
    "ig_img_urls": []
  },
  {
    "country": "日本",
    "city": "大阪",
    "name": "どうとんぼり神座 心斎橋長堀店横の自動販売機",
    "lat": 34.6748091523881,
    "lng": 135.5012019076478,
    "members": [
      "Karina"
    ],
    "date": "2023年3月20日",
    "note": "1F",
    "ig_post_url": "https://www.instagram.com/p/CqAbDnjB2RE/",
    "ig_img_urls": []
  },
  {
    "country": "日本",
    "city": "大阪",
    "name": "御堂筋大丸前 横断歩道",
    "lat": 34.67331337481674,
    "lng": 135.4997816221955,
    "members": [
      "Karina"
    ],
    "date": "2023年3月20日",
    "note": "",
    "ig_post_url": "https://www.instagram.com/p/CqAbDnjB2RE/",
    "ig_img_urls": []
  },
  {
    "country": "日本",
    "city": "大阪",
    "name": "うどんちり本家 にし家 本店",
    "lat": 34.67373861299335,
    "lng": 135.50243824577794,
    "members": [
      "Winter"
    ],
    "date": "2023年3月20日",
    "note": "",
    "ig_post_url": "https://www.instagram.com/p/CqAbDnjB2RE/",
    "ig_img_urls": []
  }
]

